[
  {
    "WptName": "1010.M",
    "GR(6)": "NG951611",
    "Hill Name": "Beinn Eighe-Ruadh-stac Mor",
    "Height": 1010,
    "GridZN": "NG",
    "GridEast": 95142,
    "GridNorth": 61152,
    "Latitude": 57.593735,
    "Longitude": -5.429454,
    "Climbed?": "",
    "Wikipedia": "https://en.wikipedia.org/wiki/Beinn_Eighe"
  },
  {
    "WptName": "0927.M",
    "GR(6)": "NC477501",
    "Hill Name": "Ben Hope",
    "Height": 927,
    "GridZN": "NC",
    "GridEast": 47750,
    "GridNorth": 50151,
    "Latitude": 58.413113,
    "Longitude": -4.60786,
    "Climbed?": "",
    "Wikipedia": "https://en.wikipedia.org/wiki/Ben_Hope"
  },
  {
    "WptName": "0974.M",
    "GR(6)": "NN367028",
    "Hill Name": "Ben Lomond",
    "Height": 974,
    "GridZN": "NN",
    "GridEast": 36707,
    "GridNorth": 2862,
    "Latitude": 56.190284,
    "Longitude": -4.633008,
    "Climbed?": "",
    "Wikipedia": "https://en.wikipedia.org/wiki/Ben_Lomond"
  },
  {
    "WptName": "1309.M",
    "GR(6)": "NN988989",
    "Hill Name": "Ben Macdui (Beinn Macduibh)",
    "Height": 1309,
    "GridZN": "NN",
    "GridEast": 98899,
    "GridNorth": 98943,
    "Latitude": 57.070368,
    "Longitude": -3.669099,
    "Climbed?": "",
    "Wikipedia": "https://en.wikipedia.org/wiki/Ben_Macdui"
  },
  {
    "WptName": "1021.M",
    "GR(6)": "NN222542",
    "Hill Name": "Buachaille Etive Mor-Stob Dearg",
    "Height": 1021.4,
    "GridZN": "NN",
    "GridEast": 22265,
    "GridNorth": 54254,
    "Latitude": 56.646229,
    "Longitude": -4.900336,
    "Climbed?": "",
    "Wikipedia": "https://en.wikipedia.org/wiki/Buachaille_Etive_M%C3%B2r"
  },
  {
    "WptName": "1055.M",
    "GR(6)": "NG929579",
    "Hill Name": "Liathach-Spidean a'Choire Leith",
    "Height": 1055,
    "GridZN": "NG",
    "GridEast": 92935,
    "GridNorth": 57970,
    "Latitude": 57.564198,
    "Longitude": -5.463592,
    "Climbed?": "",
    "Wikipedia": "https://en.wikipedia.org/wiki/Liathach"
  },
  {
    "WptName": "1156.M",
    "GR(6)": "NO243861",
    "Hill Name": "Lochnagar-Cac Carn Beag",
    "Height": 1156,
    "GridZN": "NO",
    "GridEast": 24372,
    "GridNorth": 86138,
    "Latitude": 56.960254,
    "Longitude": -3.24526,
    "Climbed?": "",
    "Wikipedia": "https://en.wikipedia.org/wiki/Lochnagar"
  },
  {
    "WptName": "1083.M",
    "GR(6)": "NN713547",
    "Hill Name": "Schiehallion",
    "Height": 1083,
    "GridZN": "NN",
    "GridEast": 71385,
    "GridNorth": 54769,
    "Latitude": 56.666942,
    "Longitude": -4.100213,
    "Climbed?": "",
    "Wikipedia": "https://en.wikipedia.org/wiki/Schiehallion"
  },
  {
    "WptName": "0964.M",
    "GR(6)": "NG471253",
    "Hill Name": "Sgurr nan Gillean",
    "Height": 964,
    "GridZN": "NG",
    "GridEast": 47161,
    "GridNorth": 25301,
    "Latitude": 57.248262,
    "Longitude": -6.193098,
    "Climbed?": "",
    "Wikipedia": "https://en.wikipedia.org/wiki/Sg%C3%B9rr_nan_Gillean"
  }
]